school, latitude, longitude, sagarin, public, HBCU, R1
Alabama, 33.2074899449517, -87.5503921508789, 95.735, 1, 0, 1
Ohio State, 40.0016856893694, -83.019728064537, 92.01, 1, 0, 1
Oklahoma, 35.205899594885, -97.4425506591796, 89.1794444444444, 1, 0, 1
LSU, 30.4120123982997, -91.1838197708129, 87.9938888888889, 1, 0, 1
Clemson, 34.6787466574134, -82.8431797027587, 87.8288888888889, 1, 0, 1
Georgia, 33.9498214894988, -83.3734416961669, 87.8183333333333, 1, 0, 1
Oregon, 44.0582727242666, -123.068504333496, 85.1183333333333, 1, 0, 1
USC, 34.0140097406291, -118.287895917892, 84.61, 0, 0, 1
Florida, 29.6498686779723, -82.348666191101, 84.4433333333333, 1, 0, 1
Wisconsin, 43.0699380264687, -89.4127464294433, 84.3838888888889, 1, 0, 1
Texas, 30.2836034020682, -97.7323365211486, 83.38, 1, 0, 1
Penn State, 40.8121527327504, -77.8562021255493, 83.2555555555556, 1, 0, 1
TCU, 32.7099159694234, -97.3679959774017, 82.8594444444445, 0, 0, 0
Auburn, 32.6023616668175, -85.4889106750488, 82.8327777777778, 1, 0, 1
Notre Dame, 41.6984231215861, -86.2338244915008, 82.3294444444445, 0, 0, 1
Oklahoma State, 36.1257086623585, -97.0665049552917, 82.1044444444444, 1, 0, 1
Michigan, 42.2658687325173, -83.7487256526947, 81.6572222222222, 1, 0, 1
Florida State, 30.4375475846212, -84.304533981035, 80.9383333333333, 1, 0, 1
Texas A&M, 30.6100975781747, -96.3407292285928, 80.3988888888889, 1, 0, 1
Utah, 40.7599478200457, -111.8488240242, 79.9094444444444, 1, 0, 1
Iowa, 41.6583889368098, -91.5514755249023, 79.8355555555556, 1, 0, 1
Boise State, 43.6027080538683, -116.195912361145, 79.7994444444445, 1, 0, 0
West Virginia, 39.6522199248281, -79.9551753012939, 79.1777777777778, 1, 0, 1
Virginia Tech, 37.2199742830054, -80.4180550575256, 78.9916666666667, 1, 0, 1
Stanford, 37.4347264132917, -122.161016464233, 78.9377777777778, 0, 0, 1
Michigan State, 42.7281691163326, -84.4848753511905, 78.24, 1, 0, 1
Washington, 47.6504305440122, -122.302919847393, 77.7805555555556, 1, 0, 1
Missouri, 38.9358952967223, -92.3331141471862, 77.75, 1, 0, 1
Kansas State, 39.2018636181424, -96.593792438507, 77.5677777777778, 1, 0, 1
South Carolina, 33.9725911545769, -81.020216345787, 77.2855555555556, 1, 0, 1
Mississippi State, 33.456230599072, -88.7934243679046, 77.1522222222222, 1, 0, 1
Tennessee, 35.9547343726225, -83.9253330230712, 77.0416666666667, 1, 0, 1
Arizona State, 33.426364, -111.932616, 76.7588888888889, 1, 0, 1
Nebraska, 40.8204835232949, -96.7057156562805, 76.735, 1, 0, 1
BYU, 40.2574879974631, -111.654438972473, 76.7205555555555, 0, 0, 0
Miami (FL), 25.9579337390289, -80.2388405799865, 76.5461111111111, 0, 0, 1
Arkansas, 36.0678507851673, -94.1787958145141, 76.3905555555556, 1, 0, 1
Baylor, 31.5586626355116, -97.1156001091003, 76.335, 0, 0, 0
Texas Tech, 33.591028298011, -101.87293767929, 76.315, 1, 0, 1
Louisville, 38.2054216852114, -85.758105615668, 76.2766666666667, 1, 0, 1
UCLA, 34.1615695872626, -118.167614936828, 76.1755555555556, 1, 0, 1
Ole Miss, 34.3621543029929, -89.534146260209, 75.6122222222222, 1, 0, 1
Pittsburgh, 40.4467837650163, -80.0157558917999, 75.2066666666667, 1, 0, 1
Cincinnati, 39.131284252734, -84.5162614374157, 74.3227777777778, 1, 0, 1
California, 37.8706866037042, -122.250709533691, 74.2622222222222, 1, 0, 1
North Carolina, 35.9069883474785, -79.0479183197021, 74.1833333333333, 1, 0, 1
Georgia Tech, 33.7725569213194, -84.3928527832031, 73.7833333333333, 1, 0, 1
NC State, 35.8007596820789, -78.7194871902465, 73.4877777777778, 1, 0, 1
Minnesota, 44.9765249691119, -93.2245758175849, 73.0477777777778, 1, 0, 1
Oregon State, 44.5594768421455, -123.281407356262, 72.9111111111111, 1, 0, 1
Northwestern, 42.0653996675299, -87.6924955844879, 72.8744444444445, 0, 0, 1
Iowa State, 42.0140054110848, -93.6358094215393, 72.7055555555556, 1, 0, 1
Boston College, 42.3351083489585, -71.1664724349975, 72.6388888888889, 0, 0, 1
Kentucky, 38.0226216812936, -84.5052051544189, 72.4338888888889, 1, 0, 1
Arizona, 32.2283402320714, -110.949039459228, 71.8216666666667, 1, 0, 1
UCF, 28.607958859227, -81.1929988861084, 71.62, 1, 0, 1
Wake Forest, 36.0918348106127, -80.2553415298461, 71.5622222222222, 0, 0, 0
North Dakota State, 46.902907626801, -96.8015222161342, 71.3588888888889, 1, 0, 1
Houston, 29.7217679632935, -95.3490984109521, 71.2838888888889, 1, 0, 1
Washington State, 46.731967978653, -117.160585787811, 70.8266666666667, 1, 0, 1
Navy, 38.9848326354336, -76.5071153640747, 70.4327777777778, 1, 0, 0
Maryland, 38.9912027514442, -76.9473117324878, 69.9955555555555, 1, 0, 1
Virginia, 38.0311237285568, -78.513708114624, 69.8738888888889, 1, 0, 1
Air Force, 38.9969074312268, -104.843688011169, 69.6922222222222, 1, 0, 0
Appalachian State, 36.211515301693, -81.6855061054229, 69.1083333333333, 1, 0, 0
Purdue, 40.434323, -86.918485, 68.6844444444444, 1, 0, 1
San Diego State, 32.7830532577911, -117.119600772857, 68.5405555555556, 1, 0, 0
Tulsa, 36.148860675192, -95.943603515625, 67.9972222222222, 0, 0, 0
Indiana, 39.1809091337292, -86.5255737304687, 67.7866666666667, 1, 0, 1
South Florida, 27.9759944700371, -82.5033491849899, 67.7611111111111, 1, 0, 1
Rutgers, 40.5137828930887, -74.4650445708728, 67.7511111111111, 1, 0, 1
Syracuse, 43.0361328204232, -76.136519908905, 67.4733333333333, 0, 0, 1
Toledo, 41.6573907789532, -83.6140171915029, 67.2238888888889, 1, 0, 0
Fresno State, 36.8143196952459, -119.758101566905, 67.0633333333333, 1, 0, 0
Vanderbilt, 36.1435584969637, -86.8087720870971, 66.9238888888889, 0, 0, 1
Illinois, 40.0993057313305, -88.2359862327575, 66.7861111111111, 1, 0, 1
Colorado, 40.0093983744632, -105.266886949539, 66.7638888888889, 1, 0, 1
Duke, 35.9953166502013, -78.9417243003845, 66.19, 0, 0, 1
Northern Illinois, 41.934014, -88.778222, 65.9638888888889, 1, 0, 0
Nevada, 39.5469248501715, -119.817559719085, 65.8483333333333, 1, 0, 1
Memphis, 35.1208569172689, -89.9780574112838, 65.6533333333333, 1, 0, 1
Marshall, 38.4248653617916, -82.4218583106994, 65.3372222222222, 1, 0, 0
East Carolina, 35.5964257969893, -77.3652291297912, 65.1722222222222, 1, 0, 0
Western Michigan, 42.2857554874701, -85.6010042130947, 65.045, 1, 0, 0
James Madison, 38.4350889358521, -78.8734033040367, 64.8261111111111, 1, 0, 0
Kansas, 38.9629459889853, -95.2463150024414, 64.2005555555556, 1, 0, 1
South Dakota State, 44.3209773912753, -96.7801523208618, 64.1027777777778, 1, 0, 0
Northern Iowa, 42.5155436208765, -92.4673748016357, 64.1011111111111, 1, 0, 0
Utah State, 41.7515318861288, -111.812105678856, 64.0822222222222, 1, 0, 1
Ohio, 39.321309084594, -82.1034394465235, 63.9572222222222, 1, 0, 1
Louisiana Tech, 32.5322380991582, -92.6560188758494, 63.5777777777778, 1, 0, 0
Troy, 31.7995274152521, -85.9521769158619, 63.5727777777778, 1, 0, 0
Central Michigan, 43.5776122825745, -84.7708296775817, 63.5044444444444, 1, 0, 0
SMU, 32.8377158099425, -96.782705783844, 63.3405555555556, 0, 0, 0
Wyoming, 41.3119359929924, -105.569064617156, 63.2038888888889, 1, 0, 0
Louisiana, 30.2157960967561, -92.0162641355238, 62.6255555555556, 1, 0, 1
Temple, 39.9007489004881, -75.1674914360046, 62.3922222222222, 1, 0, 1
Arkansas State, 35.8489900953236, -90.6676949436291, 62.3, 1, 0, 0
Southern Miss, 31.3289784266123, -89.3313306570053, 62.1888888888889, 1, 0, 1
Colorado State, 40.561742448678, -105.139843711922, 62.1738888888889, 1, 0, 1
Hawaii, 21.3727829932682, -157.929968833923, 62.1205555555556, 1, 0, 1
Montana, 46.8639147960056, -113.982060589555, 61.5688888888889, 1, 0, 1
Western Kentucky, 36.9848766298946, -86.459013971646, 61.5477777777778, 1, 0, 0
Army, 41.3870804347742, -73.9640808105468, 61.5205555555556, 1, 0, 0
Georgia Southern, 32.4122116763477, -81.7831707000732, 61.0411111111111, 1, 0, 0
Ball State, 40.2160276446665, -85.4176996220661, 60.7761111111111, 1, 0, 0
UAB, 33.5021843351162, -86.8057173092343, 60.621875, 1, 0, 1
San Jose State, 37.3201051866908, -121.86811613079, 60.2216666666667, 1, 0, 0
Middle Tennessee, 35.8511090805408, -86.3684499263763, 60.1827777777778, 1, 0, 0
UConn, 41.7598842782029, -72.6189422607421, 59.5811111111111, 1, 0, 1
Eastern Washington, 47.4927037670047, -117.588129043579, 59.5788888888889, 1, 0, 0
Buffalo, 42.9990683823964, -78.7775194644928, 59.5255555555556, 1, 0, 1
Tulane, 29.9458981125284, -90.1151911230632, 59.3438888888889, 0, 0, 1
Florida Atlantic, 26.3754535636523, -80.101683139801, 58.8622222222222, 1, 0, 0
Miami (OH), 39.5194211314234, -84.7333545014001, 58.8522222222222, 1, 0, 0
Bowling Green, 41.3780543980322, -83.6224821209907, 58.515, 1, 0, 0
Southern Illinois, 37.7084995618978, -89.2169578488814, 58.0266666666667, 1, 0, 0
UTSA, 29.4169371286815, -98.4789025783538, 57.6158333333333, 1, 0, 1
Illinois State, 40.5120046806667, -88.9962530136108, 57.4816666666667, 1, 0, 0
Youngstown State, 41.1094614636735, -80.6499762946883, 57.1644444444445, 1, 0, 0
New Mexico, 35.0676104826716, -106.628102835815, 57.1416666666667, 1, 0, 1
Rice, 29.7162340290943, -95.4092645645141, 57.0833333333333, 0, 0, 1
Villanova, 40.0329706943882, -75.3367495536804, 56.8594444444445, 0, 0, 0
Kent State, 41.1390868254951, -81.3134394586086, 56.8272222222222, 1, 0, 1
Richmond, 37.5778650064474, -77.5439715385437, 56.7811111111111, 0, 0, 0
Montana State, 45.6589275258896, -111.049590110778, 56.5944444444445, 1, 0, 1
UNLV, 36.0859738804692, -115.017113685607, 56.1388888888889, 1, 0, 1
Sam Houston State, 30.7139467376334, -95.5419158935546, 56.1083333333333, 1, 0, 0
Coastal Carolina, 33.7928381752244, -79.0170228280525, 55.7516666666667, 1, 0, 0
New Hampshire, 43.138686442556, -70.9391525387764, 55.4533333333333, 1, 0, 1
Louisiana Monroe, 32.5310686945154, -92.0664407506764, 55.3811111111111, 1, 0, 0
Eastern Michigan, 42.2557607087688, -83.647756576538, 55.2177777777778, 1, 0, 0
North Texas, 33.2039350840891, -97.1592235565185, 54.8055555555556, 1, 0, 1
Jacksonville State, 33.820310305704, -85.7664656639099, 54.7194444444444, 1, 0, 0
South Alabama, 30.6742389873067, -88.0756330490112, 54.46, 1, 0, 0
Wofford, 34.9618610164783, -81.9334982124616, 54.4227777777778, 0, 0, 0
Liberty, 37.354414, -79.175047, 53.9861111111111, 0, 0, 0
UTEP, 31.7733453051277, -106.507896780967, 53.78, 1, 0, 1
Old Dominion, 36.8887813152348, -76.3056761026382, 53.7014285714286, 1, 0, 1
Central Arkansas, 35.0803032166218, -92.4601221084594, 53.4541176470588, 1, 0, 0
Weber State, 41.1919730213628, -111.940805756734, 53.3911111111111, 1, 0, 0
Furman, 34.9198365246995, -82.4377689786167, 53.2072222222222, 0, 0, 0
Harvard, 42.366997, -71.12680128, 52.8144444444445, 0, 0, 1
FIU, 25.752492787474, -80.3778648376464, 52.7827777777778, 1, 0, 1
Akron, 41.0725695152871, -81.5083837509155, 52.7433333333333, 1, 0, 0
Chattanooga, 35.0360404491686, -85.3157687187194, 52.4888888888889, 1, 0, 0
Delaware, 39.6617040181287, -75.7488301174382, 52.3622222222222, 1, 0, 1
William & Mary, 37.2730624594961, -76.7142248153686, 52.3533333333333, 1, 0, 0
Georgia State, 33.7576173764784, -84.4010603427887, 51.7423076923077, 1, 0, 1
Idaho, 46.7263496146411, -117.017551919226, 51.6411111111111, 1, 0, 0
South Dakota, 42.7910502570519, -96.9275201606501, 51.5066666666667, 1, 0, 0
UMass, 42.3775132360045, -72.5356268605241, 51.5005555555556, 1, 0, 1
Kennesaw State, 34.0234337, -84.6154897, 51.4175, 1, 0, 0
McNeese State, 30.1736932843449, -93.2107460048247, 51.0188888888889, 1, 0, 0
Samford, 33.463425, -86.7952701999999, 50.8738888888889, 0, 0, 0
UC Davis, 38.5366354611756, -121.763319969177, 50.8733333333333, 1, 0, 0
North Dakota, 47.9112541581595, -97.0904868543121, 50.526, 1, 0, 0
Northern Arizona, 35.180402970069, -111.653022766113, 50.2466666666667, 1, 0, 0
Texas State, 29.8913445487971, -97.9253118055946, 50.1466666666667, 1, 0, 0
Maine, 44.9044661257467, -68.673550558134, 49.8688888888889, 1, 0, 1
Western Illinois, 40.468392354607, -90.6841564178466, 49.7022222222222, 1, 0, 0
Sacramento State, 38.5552050075269, -121.422132253646, 49.4933333333333, 1, 0, 0
Cal Poly, 35.2985168294003, -120.665114225167, 49.0344444444444, 1, 0, 0
Missouri State, 37.1976295206597, -93.2799875736236, 48.9538888888889, 1, 0, 0
New Mexico State, 32.279749382264, -106.741136312484, 48.7788888888889, 1, 0, 0
Citadel, 32.7932634640853, -79.9564318910352, 48.7605555555556, 1, 0, 0
Towson, 39.3885267480887, -76.615959405899, 48.5616666666667, 1, 0, 0
Eastern Kentucky, 37.7344758710105, -84.298095703125, 48.4094444444444, 1, 0, 0
Princeton, 40.3482203655987, -74.6590840816497, 48.2711111111111, 0, 0, 1
Yale, 41.3121251231602, -72.960229121659, 48.0355555555556, 0, 0, 1
SE Louisiana, 30.5109652922055, -90.4687964916229, 47.8227777777778, 1, 0, 0
Tennessee-Martin, 36.3447372747397, -88.8611769676208, 47.6322222222222, 1, 0, 0
Charlotte, 35.310280676164, -80.7404937710652, 47.449, 1, 0, 0
Portland State, 45.5215559707807, -122.691739797592, 47.3572222222222, 1, 0, 0
Southern Utah, 37.6756687492631, -113.077490329742, 47.1472222222222, 1, 0, 0
Elon, 36.1098743683231, -79.5076811313629, 46.6916666666667, 0, 0, 0
Dartmouth, 43.7012721867834, -72.2847763239833, 46.6, 0, 0, 1
Holy Cross, 42.2410046910841, -71.8114042282104, 45.6105555555556, 0, 0, 0
Stephen F. Austin, 31.6254476402517, -94.6449971628411, 45.5827777777778, 1, 0, 0
Pennsylvania, 39.9498850045148, -75.1898074150085, 45.5472222222222, 0, 0, 1
Stony Brook, 40.9183122023565, -73.1240451335907, 45.2388888888889, 1, 0, 1
Eastern Illinois, 39.4805930240453, -88.1811618804931, 45.1711111111111, 1, 0, 0
Mercer, 32.834263, -83.626851, 45.023, 0, 0, 0
Indiana State, 39.4743654748612, -87.3673582077026, 43.9505555555556, 1, 0, 0
Colgate, 42.8165272450098, -75.5458116531372, 43.6794444444445, 0, 0, 0
Albany (NY), 42.6815441600528, -73.8277173042297, 43.6316666666667, 1, 0, 1
SC State, 33.4987670093182, -80.8449335485868, 43.5477777777778, 1, 1, 0
Monmouth-NJ, 40.2793333205064, -74.0094745159149, 43.3961111111111, 0, 0, 0
Tarleton State, 32.2161158640082, -98.2159422695288, 42.89, 1, 0, 0
Nicholls State, 29.7866830856858, -90.8036386917808, 42.7277777777778, 1, 0, 0
Lehigh, 40.5891237081224, -75.3554606437683, 42.6961111111111, 0, 0, 0
Western Carolina, 35.3046540476882, -83.1826186180114, 42.4483333333333, 1, 0, 0
Charleston Southern, 32.9783500561406, -80.0684685823592, 42.3133333333333, 0, 0, 0
San Diego, 32.7734961025846, -117.183797873547, 42.1961111111111, 0, 0, 0
SE Missouri State, 37.3091932771759, -89.5314717292785, 41.9172222222222, 1, 0, 0
Fordham, 40.8611805435104, -73.8832712173461, 41.6677777777778, 0, 0, 0
Abilene Christian, 32.4338020067956, -99.6973657608032, 41.626, 0, 0, 0
Northwestern State, 31.7474287136861, -93.0965100969665, 41.555, 1, 0, 0
Rhode Island, 41.4880575336857, -71.5345226391631, 41.5194444444444, 1, 0, 0
Brown, 41.8421454678782, -71.3946461077084, 40.9116666666667, 0, 0, 1
Tennessee State, 36.166927, -86.771469, 40.0055555555556, 1, 1, 0
Idaho State, 42.8700355712198, -112.428524494171, 39.9544444444445, 1, 0, 0
Northern Colorado, 40.4033496582309, -104.705189466476, 39.7961111111111, 1, 0, 0
Incarnate Word, 29.4672834309754, -98.4698613211319, 39.601, 0, 0, 0
Bethune-Cookman, 29.1730751119705, -81.1177679002626, 39.2727777777778, 0, 1, 0
Murray State, 36.6183866173167, -88.3166027069091, 39.1805555555556, 1, 0, 0
Duquesne, 40.4356217823094, -79.9901509070334, 39.175, 0, 0, 0
East Tennessee State, 36.3270867430187, -82.3769417861926, 39.16125, 1, 0, 0
N.C. A&T, 36.0812744166915, -79.7700870037078, 38.7444444444445, 1, 1, 0
Grambling, 32.5208674487851, -92.7214074544663, 38.3533333333333, 1, 1, 0
Tennessee Tech, 36.1775832382055, -85.5065488815307, 38.2327777777778, 1, 0, 0
Lafayette, 40.7007265741943, -75.2102413284663, 38.0761111111111, 0, 0, 0
Dayton, 39.736938, -84.198786658853, 37.7172222222222, 0, 0, 0
Bryant, 41.9240451152858, -71.5380118857875, 37.6766666666667, 0, 0, 0
North Alabama, 34.8078976100366, -87.6804890563457, 37.322, 1, 0, 0
Gardner-Webb, 35.2456686619942, -81.6737427963355, 37.3072222222222, 0, 0, 0
Southern U., 30.5219699680965, -91.1895312981897, 37.0961111111111, 1, 1, 0
Central Conn. State, 41.6951367540605, -72.7614321591481, 37.0483333333333, 1, 0, 0
Florida A&M, 30.426136950087, -84.291427970328, 36.8433333333333, 1, 1, 0
Cornell, 42.4440129576118, -76.4786839485168, 36.6694444444444, 0, 0, 1
Prairie View A&M, 30.0911525909566, -95.9944152832031, 36.6011111111111, 1, 1, 0
Utah Tech, 37.1029173291859, -113.565452914597, 36.5466666666667, 1, 0, 0
Alcorn State, 31.8731844044783, -91.1363124847412, 36.24, 1, 1, 0
Austin Peay, 36.5358122959844, -87.3528528213501, 36.0383333333333, 1, 0, 0
Lamar, 30.043150050345, -94.0699072055309, 35.9069230769231, 1, 0, 0
Hampton, 37.0207061232821, -76.3339555221659, 35.7333333333333, 0, 1, 0
Drake, 41.605006051524, -93.6550220847129, 35.1322222222222, 0, 0, 0
Texas A&M-Commerce, 33.2407901267205, -95.9104363577109, 35.04, 1, 0, 0
Sacred Heart, 41.2194501755771, -73.2456172977671, 34.9505555555555, 0, 0, 0
Lindenwood, 38.7862146909876, -90.4973269957665, 34.74, 0, 0, 0
Columbia, 40.8723189213081, -73.9157140635693, 34.7083333333333, 0, 0, 1
VMI, 37.788676745634, -79.4349975678679, 34.2683333333333, 1, 0, 0
St. Thomas-Mn., 44.9433238189485, -93.1896867422452, 34.205, 0, 0, 0
Jackson State, 32.3296335816193, -90.1797831058502, 33.9933333333333, 1, 1, 0
St. Francis-Pa., 40.5063595611279, -78.6369729898319, 33.7222222222222, 0, 0, 0
NC Central, 35.9756480965212, -78.8995467110898, 33.701875, 1, 1, 0
Norfolk State, 36.8466930489414, -76.2604808807373, 33.6916666666667, 1, 1, 0
Alabama A&M, 34.7832145305281, -86.579303741455, 33.5744444444444, 1, 1, 0
Alabama State, 32.3806859735875, -86.3114156948226, 33.3083333333333, 1, 1, 0
Bucknell, 40.9520773619051, -76.8857456505959, 33.2138888888889, 0, 0, 0
Robert Morris, 40.521172309297, -80.2162992954254, 30.92, 0, 0, 0
Georgetown, 38.9080328116556, -77.075400352478, 30.5188888888889, 0, 0, 1
Wagner, 40.6173245424404, -74.0954312377263, 30.3083333333333, 0, 0, 0
Morgan State, 39.2779653647445, -76.6226944327354, 29.9316666666667, 1, 1, 0
Delaware State, 39.1888260066536, -75.5434942245483, 29.0894444444444, 1, 1, 0
Howard, 38.9256708847653, -77.0212412131183, 29., 0, 1, 0
Presbyterian College, 34.4605571284515, -81.8619809838004, 28.8675, 0, 0, 0
Campbell, 35.4047183451882, -78.7429795892665, 27.984, 0, 0, 0
Merrimack, 42.6674412973159, -71.1234722151522, 26.7675, 0, 0, 0
Marist, 41.7189273847624, -73.9326238632202, 26.7061111111111, 0, 0, 0
Ark.-Pine Bluff, 34.2528433892265, -92.0217780714437, 26.67, 1, 1, 0
Stonehill, 42.0582486842592, -71.0809773731497, 25.78, 0, 0, 0
Houston Christian, 29.7522505600511, -95.352337360382, 25.346, 0, 0, 0
Texas Southern, 29.7522505600511, -95.352337360382, 25.1183333333333, 1, 1, 0
Morehead State, 38.1918679567418, -83.4253692626953, 23.9166666666667, 1, 0, 0
LIU Post, 40.8199593970097, -73.5952455557632, 23.57, 0, 0, 0
Butler, 39.8442975650596, -86.166241911809, 23.1538888888889, 0, 0, 0
Davidson, 35.4995848258246, -80.8434523914253, 20.8744444444444, 0, 0, 0
Miss. Valley State, 33.5093393678006, -90.3437948226928, 20.2855555555556, 1, 1, 0
Valparaiso, 41.465178807414, -87.0478345286491, 17.1133333333333, 0, 0, 0
Stetson, 29.0195078302558, -81.3003186248933, 14.759, 0, 0, 0
